{
  "routeId": "route_1766090791565",
  "createdAt": "2025-12-18T20:50:21.891Z",
  "locations": [
    {
      "latitude": 52.368205,
      "longitude": 4.932326,
      "location": {
        "displayName": "Keerwal, Amsterdam",
        "street": "Keerwal",
        "locality": "Amsterdam",
        "region": "Noord-Holland",
        "country": "Nederland",
        "postcode": "1018 AK",
        "placeId": 143442167
      },
      "cachedAt": 1766090953532
    },
    {
      "latitude": 52.372108,
      "longitude": 4.94071,
      "location": {
        "displayName": "Piet Heintunnel, Amsterdam",
        "street": "Piet Heintunnel",
        "locality": "Amsterdam",
        "region": "Noord-Holland",
        "country": "Nederland",
        "postcode": "1019 WT",
        "placeId": 145065415
      },
      "cachedAt": 1766090954430
    },
    {
      "latitude": 52.37337,
      "longitude": 4.955389,
      "location": {
        "displayName": "Piet Heintunnel, Amsterdam",
        "street": "Piet Heintunnel",
        "locality": "Amsterdam",
        "region": "Noord-Holland",
        "country": "Nederland",
        "postcode": "1019 WT",
        "placeId": 145065415
      },
      "cachedAt": 1766090955590
    },
    {
      "latitude": 52.369451,
      "longitude": 4.968398,
      "location": {
        "displayName": "IJburglaan, Amsterdam",
        "street": "IJburglaan",
        "locality": "Amsterdam",
        "region": "Noord-Holland",
        "country": "Nederland",
        "postcode": "1095 MN",
        "placeId": 144729411
      },
      "cachedAt": 1766090956612
    },
    {
      "latitude": 52.360632,
      "longitude": 4.968362,
      "location": {
        "displayName": "Diemerzeedijk, Amsterdam",
        "street": "Diemerzeedijk",
        "locality": "Amsterdam",
        "region": "Noord-Holland",
        "country": "Nederland",
        "postcode": "1095 KK",
        "placeId": 144058143
      },
      "cachedAt": 1766090957720
    },
    {
      "latitude": 52.352131,
      "longitude": 4.963129,
      "location": {
        "displayName": "Ringweg-Oost, Amsterdam",
        "street": "Ringweg-Oost",
        "locality": "Amsterdam",
        "region": "Noord-Holland",
        "country": "Nederland",
        "postcode": "1098 XH",
        "placeId": 145037574
      },
      "cachedAt": 1766090958781
    },
    {
      "latitude": 52.348043,
      "longitude": 4.971297,
      "location": {
        "displayName": "Rijksweg A1, Diemen",
        "street": "Rijksweg A1",
        "locality": "Diemen",
        "region": "Noord-Holland",
        "country": "Nederland",
        "postcode": "1111 JR",
        "placeId": 144371468
      },
      "cachedAt": 1766090959965
    },
    {
      "latitude": 52.342094,
      "longitude": 4.982553,
      "location": {
        "displayName": "Rijksweg A1, Diemen",
        "street": "Rijksweg A1",
        "locality": "Diemen",
        "region": "Noord-Holland",
        "country": "Nederland",
        "postcode": "1113 KV",
        "placeId": 144450543
      },
      "cachedAt": 1766090960976
    },
    {
      "latitude": 52.335561,
      "longitude": 4.993065,
      "location": {
        "displayName": "Rijksweg A1, Diemen",
        "street": "Rijksweg A1",
        "locality": "Diemen",
        "region": "Noord-Holland",
        "country": "Nederland",
        "postcode": "1111 PV",
        "placeId": 145515428
      },
      "cachedAt": 1766090962096
    },
    {
      "latitude": 52.332426,
      "longitude": 5.006931,
      "location": {
        "displayName": "Rijksweg A1, Diemen",
        "street": "Rijksweg A1",
        "locality": "Diemen",
        "region": "Noord-Holland",
        "country": "Nederland",
        "postcode": "1111 PP",
        "placeId": 143956558
      },
      "cachedAt": 1766090963148
    },
    {
      "latitude": 52.331957,
      "longitude": 5.021693,
      "location": {
        "displayName": "A9, Muiden",
        "street": "A9",
        "locality": "Muiden",
        "region": "Noord-Holland",
        "country": "Nederland",
        "postcode": "1398 PV",
        "placeId": 142167484
      },
      "cachedAt": 1766090964326
    },
    {
      "latitude": 52.330084,
      "longitude": 5.037068,
      "location": {
        "displayName": "Rijksweg A1 ZZ, Muiden",
        "street": "Rijksweg A1 ZZ",
        "locality": "Muiden",
        "region": "Noord-Holland",
        "country": "Nederland",
        "postcode": "1384 CA",
        "placeId": 143761634
      },
      "cachedAt": 1766090965347
    },
    {
      "latitude": 52.326959,
      "longitude": 5.051646,
      "location": {
        "displayName": "Rijksweg A1 ZZ, Muiden",
        "street": "Rijksweg A1 ZZ",
        "locality": "Muiden",
        "region": "Noord-Holland",
        "country": "Nederland",
        "postcode": "1384 GS",
        "placeId": 143543334
      },
      "cachedAt": 1766090966549
    },
    {
      "latitude": 52.322922,
      "longitude": 5.066961,
      "location": {
        "displayName": "Rijksweg A1 ZZ, Muiden",
        "street": "Rijksweg A1 ZZ",
        "locality": "Muiden",
        "region": "Noord-Holland",
        "country": "Nederland",
        "postcode": "1398 PB",
        "placeId": 142984609
      },
      "cachedAt": 1766090967572
    },
    {
      "latitude": 52.320872,
      "longitude": 5.081298,
      "location": {
        "displayName": "Rijksweg A1 ZZ, Muiden",
        "street": "Rijksweg A1 ZZ",
        "locality": "Muiden",
        "region": "Noord-Holland",
        "country": "Nederland",
        "postcode": "1398 PZ",
        "placeId": 143403844
      },
      "cachedAt": 1766090968728
    },
    {
      "latitude": 52.317617,
      "longitude": 5.095304,
      "location": {
        "displayName": "Rijksweg A1, Muiderberg",
        "street": "Rijksweg A1",
        "locality": "Muiderberg",
        "region": "Noord-Holland",
        "country": "Nederland",
        "postcode": "1399 PJ",
        "placeId": 143462204
      },
      "cachedAt": 1766090969744
    },
    {
      "latitude": 52.313899,
      "longitude": 5.108734,
      "location": {
        "displayName": "Rijksweg A1, Muiderberg",
        "street": "Rijksweg A1",
        "locality": "Muiderberg",
        "region": "Noord-Holland",
        "country": "Nederland",
        "postcode": "1399 PL",
        "placeId": 142691883
      },
      "cachedAt": 1766090970913
    },
    {
      "latitude": 52.309613,
      "longitude": 5.121541,
      "location": {
        "displayName": "A1, Naarden",
        "street": "A1",
        "locality": "Naarden",
        "region": "Noord-Holland",
        "country": "Nederland",
        "postcode": "1399 PH",
        "placeId": 142357086
      },
      "cachedAt": 1766090971964
    },
    {
      "latitude": 52.305694,
      "longitude": 5.134874,
      "location": {
        "displayName": "A1, Naarden",
        "street": "A1",
        "locality": "Naarden",
        "region": "Noord-Holland",
        "country": "Nederland",
        "postcode": "1411 DC",
        "placeId": 144138195
      },
      "cachedAt": 1766090973134
    },
    {
      "latitude": 52.305957,
      "longitude": 5.150482,
      "location": {
        "displayName": "A1, Naarden",
        "street": "A1",
        "locality": "Naarden",
        "region": "Noord-Holland",
        "country": "Nederland",
        "postcode": "1411 AH",
        "placeId": 142786611
      },
      "cachedAt": 1766090974162
    },
    {
      "latitude": 52.304309,
      "longitude": 5.165015,
      "location": {
        "displayName": "A1, Naarden",
        "street": "A1",
        "locality": "Naarden",
        "region": "Noord-Holland",
        "country": "Nederland",
        "postcode": "1411 WD",
        "placeId": 144046640
      },
      "cachedAt": 1766090975334
    },
    {
      "latitude": 52.29721,
      "longitude": 5.175148,
      "location": {
        "displayName": "A1, Naarden",
        "street": "A1",
        "locality": "Naarden",
        "region": "Noord-Holland",
        "country": "Nederland",
        "postcode": "1411 GN",
        "placeId": 144097227
      },
      "cachedAt": 1766090976375
    },
    {
      "latitude": 52.289147,
      "longitude": 5.182346,
      "location": {
        "displayName": "A1, Naarden",
        "street": "A1",
        "locality": "Naarden",
        "region": "Noord-Holland",
        "country": "Nederland",
        "postcode": "1411 DA",
        "placeId": 143521019
      },
      "cachedAt": 1766090977530
    },
    {
      "latitude": 52.279913,
      "longitude": 5.184106,
      "location": {
        "displayName": "A1, Naarden",
        "street": "A1",
        "locality": "Naarden",
        "region": "Noord-Holland",
        "country": "Nederland",
        "postcode": "1401 BP",
        "placeId": 143970141
      },
      "cachedAt": 1766090978617
    },
    {
      "latitude": 52.272686,
      "longitude": 5.19341,
      "location": {
        "displayName": "A1, Huizen",
        "street": "A1",
        "locality": "Huizen",
        "region": "Noord-Holland",
        "country": "Nederland",
        "postcode": "1403 CK",
        "placeId": 142491841
      },
      "cachedAt": 1766090979764
    },
    {
      "latitude": 52.266776,
      "longitude": 5.204502,
      "location": {
        "displayName": "Rijksweg A1, Laren",
        "street": "Rijksweg A1",
        "locality": "Laren",
        "region": "Noord-Holland",
        "country": "Nederland",
        "postcode": "1251 AV",
        "placeId": 143587189
      },
      "cachedAt": 1766090980769
    },
    {
      "latitude": 52.257901,
      "longitude": 5.20882,
      "location": {
        "displayName": "Rijksweg A1, Laren",
        "street": "Rijksweg A1",
        "locality": "Laren",
        "region": "Noord-Holland",
        "country": "Nederland",
        "postcode": "1251 CJ",
        "placeId": 144379920
      },
      "cachedAt": 1766090982046
    },
    {
      "latitude": 52.249354,
      "longitude": 5.213248,
      "location": {
        "displayName": "Rijksweg A1, Laren",
        "street": "Rijksweg A1",
        "locality": "Laren",
        "region": "Noord-Holland",
        "country": "Nederland",
        "postcode": "1251 GC",
        "placeId": 143353554
      },
      "cachedAt": 1766090983057
    },
    {
      "latitude": 52.241641,
      "longitude": 5.22244,
      "location": {
        "displayName": "Rijksweg A1, Laren",
        "street": "Rijksweg A1",
        "locality": "Laren",
        "region": "Noord-Holland",
        "country": "Nederland",
        "postcode": "1251 GJ",
        "placeId": 143783348
      },
      "cachedAt": 1766090984114
    },
    {
      "latitude": 52.234848,
      "longitude": 5.234493,
      "location": {
        "displayName": "A1, Eemnes",
        "street": "A1",
        "locality": "Eemnes",
        "region": "Utrecht",
        "country": "Nederland",
        "postcode": "3755 MV",
        "placeId": 142292595
      },
      "cachedAt": 1766090985171
    },
    {
      "latitude": 52.22752,
      "longitude": 5.24591,
      "location": {
        "displayName": "A1, Eemnes",
        "street": "A1",
        "locality": "Eemnes",
        "region": "Utrecht",
        "country": "Nederland",
        "postcode": "3755 CP",
        "placeId": 143810099
      },
      "cachedAt": 1766090986388
    },
    {
      "latitude": 52.224009,
      "longitude": 5.260258,
      "location": {
        "displayName": "Rijksweg A1, Baarn",
        "street": "Rijksweg A1",
        "locality": "Baarn",
        "region": "Utrecht",
        "country": "Nederland",
        "postcode": "3741 GW",
        "placeId": 141466241
      },
      "cachedAt": 1766090987395
    },
    {
      "latitude": 52.22348,
      "longitude": 5.275294,
      "location": {
        "displayName": "Rijksweg A1, Baarn",
        "street": "Rijksweg A1",
        "locality": "Baarn",
        "region": "Utrecht",
        "country": "Nederland",
        "postcode": "3741 XS",
        "placeId": 142451933
      },
      "cachedAt": 1766090988596
    },
    {
      "latitude": 52.222185,
      "longitude": 5.290604,
      "location": {
        "displayName": "Rijksweg A1, Baarn",
        "street": "Rijksweg A1",
        "locality": "Baarn",
        "region": "Utrecht",
        "country": "Nederland",
        "postcode": "3741 XS",
        "placeId": 142451933
      },
      "cachedAt": 1766090989655
    },
    {
      "latitude": 52.219159,
      "longitude": 5.304923,
      "location": {
        "displayName": "Rijksweg A1, Baarn",
        "street": "Rijksweg A1",
        "locality": "Baarn",
        "region": "Utrecht",
        "country": "Nederland",
        "postcode": "3741 LA",
        "placeId": 141465569
      },
      "cachedAt": 1766090990777
    },
    {
      "latitude": 52.216176,
      "longitude": 5.319569,
      "location": {
        "displayName": "Rijksweg A1, Baarn",
        "street": "Rijksweg A1",
        "locality": "Baarn",
        "region": "Utrecht",
        "country": "Nederland",
        "postcode": "3741 LH",
        "placeId": 142805958
      },
      "cachedAt": 1766090991879
    },
    {
      "latitude": 52.213524,
      "longitude": 5.33457,
      "location": {
        "displayName": "Rijksweg A1, Hoogland",
        "street": "Rijksweg A1",
        "locality": "Hoogland",
        "region": "Utrecht",
        "country": "Nederland",
        "postcode": "3828 NZ",
        "placeId": 143512461
      },
      "cachedAt": 1766090992974
    },
    {
      "latitude": 52.210202,
      "longitude": 5.352684,
      "location": {
        "displayName": "Rijksweg A1, Hoogland",
        "street": "Rijksweg A1",
        "locality": "Hoogland",
        "region": "Utrecht",
        "country": "Nederland",
        "postcode": "3751 LB",
        "placeId": 141471002
      },
      "cachedAt": 1766090993988
    },
    {
      "latitude": 52.207506,
      "longitude": 5.371722,
      "location": {
        "displayName": "Rijksweg A1, Amersfoort",
        "street": "Rijksweg A1",
        "locality": "Amersfoort",
        "region": "Utrecht",
        "country": "Nederland",
        "postcode": "3824 LK",
        "placeId": 143181254
      },
      "cachedAt": 1766090995244
    },
    {
      "latitude": 52.204397,
      "longitude": 5.385875,
      "location": {
        "displayName": "Rijksweg A1, Amersfoort",
        "street": "Rijksweg A1",
        "locality": "Amersfoort",
        "region": "Utrecht",
        "country": "Nederland",
        "postcode": "3824 NA",
        "placeId": 143252960
      },
      "cachedAt": 1766090996227
    },
    {
      "latitude": 52.197622,
      "longitude": 5.397754,
      "location": {
        "displayName": "Rijksweg A1, Amersfoort",
        "street": "Rijksweg A1",
        "locality": "Amersfoort",
        "region": "Utrecht",
        "country": "Nederland",
        "postcode": "3824 MH",
        "placeId": 142997071
      },
      "cachedAt": 1766090997401
    },
    {
      "latitude": 52.190115,
      "longitude": 5.408217,
      "location": {
        "displayName": "Rijksweg A1, Amersfoort",
        "street": "Rijksweg A1",
        "locality": "Amersfoort",
        "region": "Utrecht",
        "country": "Nederland",
        "postcode": "3823 LL",
        "placeId": 142991319
      },
      "cachedAt": 1766090998438
    },
    {
      "latitude": 52.183159,
      "longitude": 5.417644,
      "location": {
        "displayName": "Rijksweg A1, Amersfoort",
        "street": "Rijksweg A1",
        "locality": "Amersfoort",
        "region": "Utrecht",
        "country": "Nederland",
        "postcode": "3821 AL",
        "placeId": 146047358
      },
      "cachedAt": 1766090999634
    },
    {
      "latitude": 52.17597,
      "longitude": 5.42784,
      "location": {
        "displayName": "Rijksweg A1, Amersfoort",
        "street": "Rijksweg A1",
        "locality": "Amersfoort",
        "region": "Utrecht",
        "country": "Nederland",
        "postcode": "3825 PL",
        "placeId": 142321922
      },
      "cachedAt": 1766091000605
    },
    {
      "latitude": 52.169771,
      "longitude": 5.440073,
      "location": {
        "displayName": "Rijksweg A1, Amersfoort",
        "street": "Rijksweg A1",
        "locality": "Amersfoort",
        "region": "Utrecht",
        "country": "Nederland",
        "postcode": "3821 CA",
        "placeId": 141554316
      },
      "cachedAt": 1766091001883
    },
    {
      "latitude": 52.167065,
      "longitude": 5.453893,
      "location": {
        "displayName": "Rijksweg A1, Amersfoort",
        "street": "Rijksweg A1",
        "locality": "Amersfoort",
        "region": "Utrecht",
        "country": "Nederland",
        "postcode": "3784 WN",
        "placeId": 143282155
      },
      "cachedAt": 1766091002872
    },
    {
      "latitude": 52.165127,
      "longitude": 5.480328,
      "location": {
        "displayName": "Rijksweg A1, Terschuur",
        "street": "Rijksweg A1",
        "locality": "Terschuur",
        "region": "Gelderland",
        "country": "Nederland",
        "postcode": "3784 WN",
        "placeId": 143282155
      },
      "cachedAt": 1766091004011
    },
    {
      "latitude": 52.162943,
      "longitude": 5.510062,
      "location": {
        "displayName": "Rijksweg A1, Terschuur",
        "street": "Rijksweg A1",
        "locality": "Terschuur",
        "region": "Gelderland",
        "country": "Nederland",
        "postcode": "3784 WN",
        "placeId": 143282155
      },
      "cachedAt": 1766091005032
    },
    {
      "latitude": 52.162904,
      "longitude": 5.525651,
      "location": {
        "displayName": "Rijksweg A1, Terschuur",
        "street": "Rijksweg A1",
        "locality": "Terschuur",
        "region": "Gelderland",
        "country": "Nederland",
        "postcode": "3784 WJ",
        "placeId": 142120075
      },
      "cachedAt": 1766091006196
    },
    {
      "latitude": 52.164397,
      "longitude": 5.540937,
      "location": {
        "displayName": "Rijksweg A1, Terschuur",
        "street": "Rijksweg A1",
        "locality": "Terschuur",
        "region": "Gelderland",
        "country": "Nederland",
        "postcode": "3784 LZ",
        "placeId": 142843780
      },
      "cachedAt": 1766091007204
    },
    {
      "latitude": 52.166469,
      "longitude": 5.55598,
      "location": {
        "displayName": "Rijksweg A1, Terschuur",
        "street": "Rijksweg A1",
        "locality": "Terschuur",
        "region": "Gelderland",
        "country": "Nederland",
        "postcode": "3784 LV",
        "placeId": 143014897
      },
      "cachedAt": 1766091008379
    },
    {
      "latitude": 52.162673,
      "longitude": 5.565932,
      "location": {
        "displayName": "Rijksweg A30, Terschuur",
        "street": "Rijksweg A30",
        "locality": "Terschuur",
        "region": "Gelderland",
        "country": "Nederland",
        "postcode": "3771 LC",
        "placeId": 143015107
      },
      "cachedAt": 1766091009447
    },
    {
      "latitude": 52.152465,
      "longitude": 5.563876,
      "location": {
        "displayName": "Rijksweg A30, Barneveld",
        "street": "Rijksweg A30",
        "locality": "Barneveld",
        "region": "Gelderland",
        "country": "Nederland",
        "postcode": "3771 LA",
        "placeId": 142710061
      },
      "cachedAt": 1766091011803
    },
    {
      "latitude": 52.141998,
      "longitude": 5.562306,
      "location": {
        "displayName": "Rijksweg A30, Barneveld",
        "street": "Rijksweg A30",
        "locality": "Barneveld",
        "region": "Gelderland",
        "country": "Nederland",
        "postcode": "3771 VJ",
        "placeId": 141610106
      },
      "cachedAt": 1766091012055
    },
    {
      "latitude": 52.132945,
      "longitude": 5.561906,
      "location": {
        "displayName": "Rijksweg A30, Barneveld",
        "street": "Rijksweg A30",
        "locality": "Barneveld",
        "region": "Gelderland",
        "country": "Nederland",
        "postcode": "3772 NC",
        "placeId": 142958999
      },
      "cachedAt": 1766091013039
    },
    {
      "latitude": 52.124076,
      "longitude": 5.564561,
      "location": {
        "displayName": "Rijksweg A30, Barneveld",
        "street": "Rijksweg A30",
        "locality": "Barneveld",
        "region": "Gelderland",
        "country": "Nederland",
        "postcode": "3772 MN",
        "placeId": 143261732
      },
      "cachedAt": 1766091014244
    },
    {
      "latitude": 52.115162,
      "longitude": 5.55544,
      "location": {
        "displayName": "Renswoudsestraatweg, Barneveld",
        "street": "Renswoudsestraatweg",
        "locality": "Barneveld",
        "region": "Gelderland",
        "country": "Nederland",
        "postcode": "3772 MC",
        "placeId": 143159669
      },
      "cachedAt": 1766091015190
    },
    {
      "latitude": 52.106902,
      "longitude": 5.549069,
      "location": {
        "displayName": "Renswoudsestraatweg, Barneveld",
        "street": "Renswoudsestraatweg",
        "locality": "Barneveld",
        "region": "Gelderland",
        "country": "Nederland",
        "postcode": "6741 MG",
        "placeId": 142958033
      },
      "cachedAt": 1766091016386
    },
    {
      "latitude": 52.096655,
      "longitude": 5.543641,
      "location": {
        "displayName": "Barneveldsestraat, Renswoude",
        "street": "Barneveldsestraat",
        "locality": "Renswoude",
        "region": "Utrecht",
        "country": "Nederland",
        "postcode": "3927 CB",
        "placeId": 141862305
      },
      "cachedAt": 1766091017398
    },
    {
      "latitude": 52.08698,
      "longitude": 5.541087,
      "location": {
        "displayName": "Barneveldsestraat, Renswoude",
        "street": "Barneveldsestraat",
        "locality": "Renswoude",
        "region": "Utrecht",
        "country": "Nederland",
        "postcode": "3927 CB",
        "placeId": 141862305
      },
      "cachedAt": 1766091018585
    },
    {
      "latitude": 52.078064,
      "longitude": 5.538115,
      "location": {
        "displayName": "Barneveldsestraat, Renswoude",
        "street": "Barneveldsestraat",
        "locality": "Renswoude",
        "region": "Utrecht",
        "country": "Nederland",
        "postcode": "3927 CC",
        "placeId": 142987474
      },
      "cachedAt": 1766091019687
    },
    {
      "latitude": 52.073995,
      "longitude": 5.530808,
      "location": {
        "displayName": "Nijborg, Renswoude",
        "street": "Nijborg",
        "locality": "Renswoude",
        "region": "Utrecht",
        "country": "Nederland",
        "postcode": "3927 DA",
        "placeId": 143231564
      },
      "cachedAt": 1766091020807
    },
    {
      "latitude": 52.072473,
      "longitude": 5.53108,
      "location": {
        "displayName": "Pynssen van der Aalaan, Renswoude",
        "street": "Pynssen van der Aalaan",
        "locality": "Renswoude",
        "region": "Utrecht",
        "country": "Nederland",
        "postcode": "3927 DK",
        "placeId": 142635647
      },
      "cachedAt": 1766091021888
    }
  ]
}